{
    "type": "FeatureCollection",
    "features": [
        {
            "type": "Feature",
            "id": 0,
            "properties": {
                "name": "Lille Metropole",
                "timestamp": "2013-08-06T13:00:11.365Z",
                "bikes": 18,
                "slots": 18,
                "marker-color": "#70E588"
            },
            "geometry": {
                "type": "Point",
                "coordinates": [
                    3.07599,
                    50.6419
                ]
            }
        },
        {
            "type": "Feature",
            "id": 1,
            "properties": {
                "name": "Rihour",
                "timestamp": "2013-08-06T13:00:12.211Z",
                "bikes": 31,
                "slots": 1,
                "marker-color": "#70E588"
            },
            "geometry": {
                "type": "Point",
                "coordinates": [
                    3.06247,
                    50.6359
                ]
            }
        },
        {
            "type": "Feature",
            "id": 2,
            "properties": {
                "name": "Saint Maur",
                "timestamp": "2013-08-06T13:00:13.093Z",
                "bikes": 0,
                "slots": 24,
                "marker-color": "#F85E35"
            },
            "geometry": {
                "type": "Point",
                "coordinates": [
                    3.08162,
                    50.6516
                ]
            }
        },
        {
            "type": "Feature",
            "id": 3,
            "properties": {
                "name": "Mons Sarts",
                "timestamp": "2013-08-06T13:00:13.930Z",
                "bikes": 14,
                "slots": 10,
                "marker-color": "#70E588"
            },
            "geometry": {
                "type": "Point",
                "coordinates": [
                    3.09929,
                    50.6423
                ]
            }
        },
        {
            "type": "Feature",
            "id": 4,
            "properties": {
                "name": "Mairie de Mons",
                "timestamp": "2013-08-06T13:00:14.776Z",
                "bikes": 2,
                "slots": 14,
                "marker-color": "#FFFF63"
            },
            "geometry": {
                "type": "Point",
                "coordinates": [
                    3.11084,
                    50.6424
                ]
            }
        },
        {
            "type": "Feature",
            "id": 5,
            "properties": {
                "name": "Lacordaire",
                "timestamp": "2013-08-06T13:00:15.627Z",
                "bikes": 12,
                "slots": 4,
                "marker-color": "#70E588"
            },
            "geometry": {
                "type": "Point",
                "coordinates": [
                    3.10668,
                    50.6398
                ]
            }
        },
        {
            "type": "Feature",
            "id": 6,
            "properties": {
                "name": "Mendes France",
                "timestamp": "2013-08-06T13:00:16.458Z",
                "bikes": 12,
                "slots": 6,
                "marker-color": "#70E588"
            },
            "geometry": {
                "type": "Point",
                "coordinates": [
                    3.11274,
                    50.6458
                ]
            }
        },
        {
            "type": "Feature",
            "id": 7,
            "properties": {
                "name": "Verdun",
                "timestamp": "2013-08-06T13:00:17.286Z",
                "bikes": 10,
                "slots": 2,
                "marker-color": "#70E588"
            },
            "geometry": {
                "type": "Point",
                "coordinates": [
                    3.10231,
                    50.6381
                ]
            }
        },
        {
            "type": "Feature",
            "id": 8,
            "properties": {
                "name": "Concorde",
                "timestamp": "2013-08-06T13:00:18.113Z",
                "bikes": 11,
                "slots": 1,
                "marker-color": "#70E588"
            },
            "geometry": {
                "type": "Point",
                "coordinates": [
                    3.1127,
                    50.6381
                ]
            }
        },
        {
            "type": "Feature",
            "id": 9,
            "properties": {
                "name": "Lavoisier",
                "timestamp": "2013-08-06T13:00:18.942Z",
                "bikes": 3,
                "slots": 9,
                "marker-color": "#FFFF63"
            },
            "geometry": {
                "type": "Point",
                "coordinates": [
                    3.10644,
                    50.6361
                ]
            }
        },
        {
            "type": "Feature",
            "id": 10,
            "properties": {
                "name": "General de Gaulle",
                "timestamp": "2013-08-06T13:00:19.773Z",
                "bikes": 5,
                "slots": 15,
                "marker-color": "#70E588"
            },
            "geometry": {
                "type": "Point",
                "coordinates": [
                    3.10052,
                    50.6453
                ]
            }
        },
        {
            "type": "Feature",
            "id": 11,
            "properties": {
                "name": "Square du Portugal",
                "timestamp": "2013-08-06T13:00:20.619Z",
                "bikes": 11,
                "slots": 5,
                "marker-color": "#70E588"
            },
            "geometry": {
                "type": "Point",
                "coordinates": [
                    3.03067,
                    50.6235
                ]
            }
        },
        {
            "type": "Feature",
            "id": 12,
            "properties": {
                "name": "Nouveau siecle",
                "timestamp": "2013-08-06T13:00:21.447Z",
                "bikes": 31,
                "slots": 1,
                "marker-color": "#70E588"
            },
            "geometry": {
                "type": "Point",
                "coordinates": [
                    3.06098,
                    50.6373
                ]
            }
        },
        {
            "type": "Feature",
            "id": 13,
            "properties": {
                "name": "Rue Bonte-Pollet",
                "timestamp": "2013-08-06T13:00:22.277Z",
                "bikes": 7,
                "slots": 9,
                "marker-color": "#70E588"
            },
            "geometry": {
                "type": "Point",
                "coordinates": [
                    3.03423,
                    50.6249
                ]
            }
        },
        {
            "type": "Feature",
            "id": 14,
            "properties": {
                "name": "Hellemmes Cimetieres",
                "timestamp": "2013-08-06T13:00:23.105Z",
                "bikes": 7,
                "slots": 5,
                "marker-color": "#70E588"
            },
            "geometry": {
                "type": "Point",
                "coordinates": [
                    3.11668,
                    50.6249
                ]
            }
        },
        {
            "type": "Feature",
            "id": 15,
            "properties": {
                "name": "Square Charles de Gaulle",
                "timestamp": "2013-08-06T13:00:23.931Z",
                "bikes": 6,
                "slots": 6,
                "marker-color": "#70E588"
            },
            "geometry": {
                "type": "Point",
                "coordinates": [
                    3.1151,
                    50.6268
                ]
            }
        },
        {
            "type": "Feature",
            "id": 16,
            "properties": {
                "name": "Avenue de Mormal",
                "timestamp": "2013-08-06T13:00:24.757Z",
                "bikes": 0,
                "slots": 18,
                "marker-color": "#F85E35"
            },
            "geometry": {
                "type": "Point",
                "coordinates": [
                    3.08945,
                    50.6513
                ]
            }
        },
        {
            "type": "Feature",
            "id": 17,
            "properties": {
                "name": "Bois Habite",
                "timestamp": "2013-08-06T13:00:25.584Z",
                "bikes": 10,
                "slots": 7,
                "marker-color": "#70E588"
            },
            "geometry": {
                "type": "Point",
                "coordinates": [
                    3.07921,
                    50.6265
                ]
            }
        },
        {
            "type": "Feature",
            "id": 18,
            "properties": {
                "name": "De Gaulle",
                "timestamp": "2013-08-06T13:00:26.413Z",
                "bikes": 8,
                "slots": 10,
                "marker-color": "#70E588"
            },
            "geometry": {
                "type": "Point",
                "coordinates": [
                    3.07232,
                    50.6515
                ]
            }
        },
        {
            "type": "Feature",
            "id": 19,
            "properties": {
                "name": "Botanique",
                "timestamp": "2013-08-06T13:00:27.238Z",
                "bikes": 4,
                "slots": 12,
                "marker-color": "#FFFF63"
            },
            "geometry": {
                "type": "Point",
                "coordinates": [
                    3.07834,
                    50.6489
                ]
            }
        },
        {
            "type": "Feature",
            "id": 20,
            "properties": {
                "name": "Hippodrome",
                "timestamp": "2013-08-06T13:00:28.068Z",
                "bikes": 9,
                "slots": 12,
                "marker-color": "#70E588"
            },
            "geometry": {
                "type": "Point",
                "coordinates": [
                    3.03137,
                    50.6416
                ]
            }
        },
        {
            "type": "Feature",
            "id": 21,
            "properties": {
                "name": "College Lavoisier",
                "timestamp": "2013-08-06T12:59:53.436Z",
                "bikes": 14,
                "slots": 4,
                "marker-color": "#70E588"
            },
            "geometry": {
                "type": "Point",
                "coordinates": [
                    3.02236,
                    50.6418
                ]
            }
        },
        {
            "type": "Feature",
            "id": 22,
            "properties": {
                "name": "Lomme-Lambersart",
                "timestamp": "2013-08-06T12:59:54.283Z",
                "bikes": 14,
                "slots": 4,
                "marker-color": "#70E588"
            },
            "geometry": {
                "type": "Point",
                "coordinates": [
                    3.0188,
                    50.641
                ]
            }
        },
        {
            "type": "Feature",
            "id": 23,
            "properties": {
                "name": "Opera",
                "timestamp": "2013-08-06T12:59:55.112Z",
                "bikes": 12,
                "slots": 13,
                "marker-color": "#70E588"
            },
            "geometry": {
                "type": "Point",
                "coordinates": [
                    3.0659,
                    50.6375
                ]
            }
        },
        {
            "type": "Feature",
            "id": 24,
            "properties": {
                "name": "Lomme Mairie",
                "timestamp": "2013-08-06T12:59:55.939Z",
                "bikes": 11,
                "slots": 7,
                "marker-color": "#70E588"
            },
            "geometry": {
                "type": "Point",
                "coordinates": [
                    3.01245,
                    50.6394
                ]
            }
        },
        {
            "type": "Feature",
            "id": 25,
            "properties": {
                "name": "Pont superieur",
                "timestamp": "2013-08-06T12:59:56.766Z",
                "bikes": 8,
                "slots": 8,
                "marker-color": "#70E588"
            },
            "geometry": {
                "type": "Point",
                "coordinates": [
                    3.01324,
                    50.6449
                ]
            }
        },
        {
            "type": "Feature",
            "id": 26,
            "properties": {
                "name": "Fort de Mons",
                "timestamp": "2013-08-06T12:59:57.593Z",
                "bikes": 7,
                "slots": 13,
                "marker-color": "#70E588"
            },
            "geometry": {
                "type": "Point",
                "coordinates": [
                    3.11858,
                    50.6439
                ]
            }
        },
        {
            "type": "Feature",
            "id": 27,
            "properties": {
                "name": "Le Polyedre",
                "timestamp": "2013-08-06T12:59:58.419Z",
                "bikes": 11,
                "slots": 5,
                "marker-color": "#70E588"
            },
            "geometry": {
                "type": "Point",
                "coordinates": [
                    3.11557,
                    50.6406
                ]
            }
        },
        {
            "type": "Feature",
            "id": 28,
            "properties": {
                "name": "Flers Mairie",
                "timestamp": "2013-08-06T12:59:59.245Z",
                "bikes": 7,
                "slots": 5,
                "marker-color": "#70E588"
            },
            "geometry": {
                "type": "Point",
                "coordinates": [
                    3.12796,
                    50.6371
                ]
            }
        },
        {
            "type": "Feature",
            "id": 29,
            "properties": {
                "name": "Rue Louise Michel",
                "timestamp": "2013-08-06T13:00:00.072Z",
                "bikes": 7,
                "slots": 9,
                "marker-color": "#70E588"
            },
            "geometry": {
                "type": "Point",
                "coordinates": [
                    3.12734,
                    50.6338
                ]
            }
        },
        {
            "type": "Feature",
            "id": 30,
            "properties": {
                "name": "Flers Chateau",
                "timestamp": "2013-08-06T13:00:00.920Z",
                "bikes": 7,
                "slots": 7,
                "marker-color": "#70E588"
            },
            "geometry": {
                "type": "Point",
                "coordinates": [
                    3.13085,
                    50.6361
                ]
            }
        },
        {
            "type": "Feature",
            "id": 31,
            "properties": {
                "name": "Quai du Wault",
                "timestamp": "2013-08-06T12:59:05.364Z",
                "bikes": 7,
                "slots": 11,
                "marker-color": "#70E588"
            },
            "geometry": {
                "type": "Point",
                "coordinates": [
                    3.05477,
                    50.6367
                ]
            }
        },
        {
            "type": "Feature",
            "id": 32,
            "properties": {
                "name": "Pont de Bois",
                "timestamp": "2013-08-06T12:59:06.192Z",
                "bikes": 7,
                "slots": 23,
                "marker-color": "#70E588"
            },
            "geometry": {
                "type": "Point",
                "coordinates": [
                    3.12789,
                    50.6245
                ]
            }
        },
        {
            "type": "Feature",
            "id": 33,
            "properties": {
                "name": "V.Ascq Hotel de Ville",
                "timestamp": "2013-08-06T12:59:07.018Z",
                "bikes": 13,
                "slots": 24,
                "marker-color": "#70E588"
            },
            "geometry": {
                "type": "Point",
                "coordinates": [
                    3.13197,
                    50.6196
                ]
            }
        },
        {
            "type": "Feature",
            "id": 34,
            "properties": {
                "name": "Centre Commercial V2",
                "timestamp": "2013-08-06T12:59:07.845Z",
                "bikes": 13,
                "slots": 6,
                "marker-color": "#70E588"
            },
            "geometry": {
                "type": "Point",
                "coordinates": [
                    3.13201,
                    50.6161
                ]
            }
        },
        {
            "type": "Feature",
            "id": 35,
            "properties": {
                "name": "Boulevard de Valmy",
                "timestamp": "2013-08-06T12:59:08.671Z",
                "bikes": 9,
                "slots": 19,
                "marker-color": "#70E588"
            },
            "geometry": {
                "type": "Point",
                "coordinates": [
                    3.1265,
                    50.6191
                ]
            }
        },
        {
            "type": "Feature",
            "id": 36,
            "properties": {
                "name": "Rue des Victoires",
                "timestamp": "2013-08-06T12:59:09.499Z",
                "bikes": 1,
                "slots": 15,
                "marker-color": "#FFFF63"
            },
            "geometry": {
                "type": "Point",
                "coordinates": [
                    3.13171,
                    50.6221
                ]
            }
        },
        {
            "type": "Feature",
            "id": 37,
            "properties": {
                "name": "Flers Masquelier",
                "timestamp": "2013-08-06T12:59:10.325Z",
                "bikes": 9,
                "slots": 7,
                "marker-color": "#70E588"
            },
            "geometry": {
                "type": "Point",
                "coordinates": [
                    3.12315,
                    50.6375
                ]
            }
        },
        {
            "type": "Feature",
            "id": 38,
            "properties": {
                "name": "Rue Chambord",
                "timestamp": "2013-08-06T12:59:11.151Z",
                "bikes": 10,
                "slots": 8,
                "marker-color": "#70E588"
            },
            "geometry": {
                "type": "Point",
                "coordinates": [
                    3.13387,
                    50.6297
                ]
            }
        },
        {
            "type": "Feature",
            "id": 39,
            "properties": {
                "name": "Heron Parc",
                "timestamp": "2013-08-06T12:59:11.978Z",
                "bikes": 6,
                "slots": 24,
                "marker-color": "#70E588"
            },
            "geometry": {
                "type": "Point",
                "coordinates": [
                    3.12609,
                    50.6159
                ]
            }
        },
        {
            "type": "Feature",
            "id": 40,
            "properties": {
                "name": "Ladriere",
                "timestamp": "2013-08-06T12:59:12.806Z",
                "bikes": 13,
                "slots": 7,
                "marker-color": "#70E588"
            },
            "geometry": {
                "type": "Point",
                "coordinates": [
                    3.12691,
                    50.6313
                ]
            }
        },
        {
            "type": "Feature",
            "id": 41,
            "properties": {
                "name": "Rue de Lille",
                "timestamp": "2013-08-06T12:59:13.652Z",
                "bikes": 8,
                "slots": 8,
                "marker-color": "#70E588"
            },
            "geometry": {
                "type": "Point",
                "coordinates": [
                    3.14471,
                    50.6258
                ]
            }
        },
        {
            "type": "Feature",
            "id": 42,
            "properties": {
                "name": "Champ de Mars",
                "timestamp": "2013-08-06T12:59:14.481Z",
                "bikes": 16,
                "slots": 24,
                "marker-color": "#70E588"
            },
            "geometry": {
                "type": "Point",
                "coordinates": [
                    3.05222,
                    50.6378
                ]
            }
        },
        {
            "type": "Feature",
            "id": 43,
            "properties": {
                "name": "Rue Corneille",
                "timestamp": "2013-08-06T12:59:15.307Z",
                "bikes": 7,
                "slots": 7,
                "marker-color": "#70E588"
            },
            "geometry": {
                "type": "Point",
                "coordinates": [
                    3.14481,
                    50.6238
                ]
            }
        },
        {
            "type": "Feature",
            "id": 44,
            "properties": {
                "name": "Metro Triolo",
                "timestamp": "2013-08-06T12:59:16.136Z",
                "bikes": 8,
                "slots": 16,
                "marker-color": "#70E588"
            },
            "geometry": {
                "type": "Point",
                "coordinates": [
                    3.14081,
                    50.6168
                ]
            }
        },
        {
            "type": "Feature",
            "id": 45,
            "properties": {
                "name": "Tremiere",
                "timestamp": "2013-08-06T12:59:16.963Z",
                "bikes": 7,
                "slots": 13,
                "marker-color": "#70E588"
            },
            "geometry": {
                "type": "Point",
                "coordinates": [
                    3.13821,
                    50.6206
                ]
            }
        },
        {
            "type": "Feature",
            "id": 46,
            "properties": {
                "name": "Rond Point de Tournai",
                "timestamp": "2013-08-06T12:59:17.788Z",
                "bikes": 8,
                "slots": 8,
                "marker-color": "#70E588"
            },
            "geometry": {
                "type": "Point",
                "coordinates": [
                    3.14603,
                    50.6178
                ]
            }
        },
        {
            "type": "Feature",
            "id": 47,
            "properties": {
                "name": "Annappes Republique",
                "timestamp": "2013-08-06T12:59:18.616Z",
                "bikes": 6,
                "slots": 18,
                "marker-color": "#70E588"
            },
            "geometry": {
                "type": "Point",
                "coordinates": [
                    3.14862,
                    50.6258
                ]
            }
        },
        {
            "type": "Feature",
            "id": 48,
            "properties": {
                "name": "Residence",
                "timestamp": "2013-08-06T12:59:19.443Z",
                "bikes": 7,
                "slots": 13,
                "marker-color": "#70E588"
            },
            "geometry": {
                "type": "Point",
                "coordinates": [
                    3.14528,
                    50.6199
                ]
            }
        },
        {
            "type": "Feature",
            "id": 49,
            "properties": {
                "name": "Esplanade",
                "timestamp": "2013-08-06T12:59:20.270Z",
                "bikes": 7,
                "slots": 17,
                "marker-color": "#70E588"
            },
            "geometry": {
                "type": "Point",
                "coordinates": [
                    3.05065,
                    50.6449
                ]
            }
        },
        {
            "type": "Feature",
            "id": 50,
            "properties": {
                "name": "Magasin",
                "timestamp": "2013-08-06T12:59:21.098Z",
                "bikes": 4,
                "slots": 12,
                "marker-color": "#FFFF63"
            },
            "geometry": {
                "type": "Point",
                "coordinates": [
                    3.0535,
                    50.6462
                ]
            }
        },
        {
            "type": "Feature",
            "id": 51,
            "properties": {
                "name": "Halle aux sucres",
                "timestamp": "2013-08-06T12:59:21.924Z",
                "bikes": 8,
                "slots": 11,
                "marker-color": "#70E588"
            },
            "geometry": {
                "type": "Point",
                "coordinates": [
                    3.06087,
                    50.6447
                ]
            }
        },
        {
            "type": "Feature",
            "id": 52,
            "properties": {
                "name": "Voltaire",
                "timestamp": "2013-08-06T12:59:22.750Z",
                "bikes": 9,
                "slots": 5,
                "marker-color": "#70E588"
            },
            "geometry": {
                "type": "Point",
                "coordinates": [
                    3.05593,
                    50.6428
                ]
            }
        },
        {
            "type": "Feature",
            "id": 53,
            "properties": {
                "name": "Rue Royale",
                "timestamp": "2013-08-06T12:59:23.596Z",
                "bikes": 7,
                "slots": 17,
                "marker-color": "#70E588"
            },
            "geometry": {
                "type": "Point",
                "coordinates": [
                    3.05774,
                    50.6403
                ]
            }
        },
        {
            "type": "Feature",
            "id": 54,
            "properties": {
                "name": "Universite Catholique",
                "timestamp": "2013-08-06T12:59:24.425Z",
                "bikes": 9,
                "slots": 22,
                "marker-color": "#70E588"
            },
            "geometry": {
                "type": "Point",
                "coordinates": [
                    3.04613,
                    50.6322
                ]
            }
        },
        {
            "type": "Feature",
            "id": 55,
            "properties": {
                "name": "N.D. de la Treille",
                "timestamp": "2013-08-06T12:59:25.252Z",
                "bikes": 27,
                "slots": 3,
                "marker-color": "#70E588"
            },
            "geometry": {
                "type": "Point",
                "coordinates": [
                    3.06205,
                    50.6404
                ]
            }
        },
        {
            "type": "Feature",
            "id": 56,
            "properties": {
                "name": "Croix Mairie",
                "timestamp": "2013-08-06T12:59:26.079Z",
                "bikes": 3,
                "slots": 21,
                "marker-color": "#FFFF63"
            },
            "geometry": {
                "type": "Point",
                "coordinates": [
                    3.15591,
                    50.6791
                ]
            }
        },
        {
            "type": "Feature",
            "id": 57,
            "properties": {
                "name": "Edhec",
                "timestamp": "2013-08-06T12:59:26.909Z",
                "bikes": 11,
                "slots": 19,
                "marker-color": "#70E588"
            },
            "geometry": {
                "type": "Point",
                "coordinates": [
                    3.16344,
                    50.6739
                ]
            }
        },
        {
            "type": "Feature",
            "id": 58,
            "properties": {
                "name": "Victor Provo",
                "timestamp": "2013-08-06T12:59:27.736Z",
                "bikes": 4,
                "slots": 16,
                "marker-color": "#FFFF63"
            },
            "geometry": {
                "type": "Point",
                "coordinates": [
                    3.16745,
                    50.6808
                ]
            }
        },
        {
            "type": "Feature",
            "id": 59,
            "properties": {
                "name": "Jean Moulin",
                "timestamp": "2013-08-06T12:59:28.565Z",
                "bikes": 7,
                "slots": 8,
                "marker-color": "#70E588"
            },
            "geometry": {
                "type": "Point",
                "coordinates": [
                    3.17197,
                    50.6848
                ]
            }
        },
        {
            "type": "Feature",
            "id": 60,
            "properties": {
                "name": "Condition Publique",
                "timestamp": "2013-08-06T12:59:29.394Z",
                "bikes": 7,
                "slots": 11,
                "marker-color": "#70E588"
            },
            "geometry": {
                "type": "Point",
                "coordinates": [
                    3.18854,
                    50.6909
                ]
            }
        },
        {
            "type": "Feature",
            "id": 61,
            "properties": {
                "name": "Alfred Mongy",
                "timestamp": "2013-08-06T12:59:30.221Z",
                "bikes": 9,
                "slots": 15,
                "marker-color": "#70E588"
            },
            "geometry": {
                "type": "Point",
                "coordinates": [
                    3.17481,
                    50.688
                ]
            }
        },
        {
            "type": "Feature",
            "id": 62,
            "properties": {
                "name": "Euroteleport",
                "timestamp": "2013-08-06T12:59:31.051Z",
                "bikes": 12,
                "slots": 18,
                "marker-color": "#70E588"
            },
            "geometry": {
                "type": "Point",
                "coordinates": [
                    3.17966,
                    50.6914
                ]
            }
        },
        {
            "type": "Feature",
            "id": 63,
            "properties": {
                "name": "De Fourmies",
                "timestamp": "2013-08-06T12:59:31.880Z",
                "bikes": 4,
                "slots": 8,
                "marker-color": "#FFFF63"
            },
            "geometry": {
                "type": "Point",
                "coordinates": [
                    3.182,
                    50.6754
                ]
            }
        },
        {
            "type": "Feature",
            "id": 64,
            "properties": {
                "name": "Usine",
                "timestamp": "2013-08-06T12:59:32.728Z",
                "bikes": 17,
                "slots": 13,
                "marker-color": "#70E588"
            },
            "geometry": {
                "type": "Point",
                "coordinates": [
                    3.19574,
                    50.675
                ]
            }
        },
        {
            "type": "Feature",
            "id": 65,
            "properties": {
                "name": "Place du Concert",
                "timestamp": "2013-08-06T12:59:33.556Z",
                "bikes": 8,
                "slots": 12,
                "marker-color": "#70E588"
            },
            "geometry": {
                "type": "Point",
                "coordinates": [
                    3.06177,
                    50.6419
                ]
            }
        },
        {
            "type": "Feature",
            "id": 66,
            "properties": {
                "name": "Linne",
                "timestamp": "2013-08-06T12:59:34.386Z",
                "bikes": 6,
                "slots": 6,
                "marker-color": "#70E588"
            },
            "geometry": {
                "type": "Point",
                "coordinates": [
                    3.18782,
                    50.6769
                ]
            }
        },
        {
            "type": "Feature",
            "id": 67,
            "properties": {
                "name": "Gustave Delory",
                "timestamp": "2013-08-06T12:59:35.212Z",
                "bikes": 4,
                "slots": 14,
                "marker-color": "#FFFF63"
            },
            "geometry": {
                "type": "Point",
                "coordinates": [
                    3.17452,
                    50.6742
                ]
            }
        },
        {
            "type": "Feature",
            "id": 68,
            "properties": {
                "name": "Danielle Lesaffre",
                "timestamp": "2013-08-06T13:00:12.058Z",
                "bikes": 8,
                "slots": 10,
                "marker-color": "#70E588"
            },
            "geometry": {
                "type": "Point",
                "coordinates": [
                    3.1822,
                    50.6821
                ]
            }
        },
        {
            "type": "Feature",
            "id": 69,
            "properties": {
                "name": "Lannoy",
                "timestamp": "2013-08-06T13:00:12.917Z",
                "bikes": 8,
                "slots": 10,
                "marker-color": "#70E588"
            },
            "geometry": {
                "type": "Point",
                "coordinates": [
                    3.18203,
                    50.6886
                ]
            }
        },
        {
            "type": "Feature",
            "id": 70,
            "properties": {
                "name": "Saint Jean-Baptiste",
                "timestamp": "2013-08-06T13:00:13.763Z",
                "bikes": 4,
                "slots": 8,
                "marker-color": "#FFFF63"
            },
            "geometry": {
                "type": "Point",
                "coordinates": [
                    3.17926,
                    50.6795
                ]
            }
        },
        {
            "type": "Feature",
            "id": 71,
            "properties": {
                "name": "Fraternite",
                "timestamp": "2013-08-06T13:00:14.612Z",
                "bikes": 5,
                "slots": 11,
                "marker-color": "#70E588"
            },
            "geometry": {
                "type": "Point",
                "coordinates": [
                    3.19412,
                    50.6818
                ]
            }
        },
        {
            "type": "Feature",
            "id": 72,
            "properties": {
                "name": "Hopital Victor Provo",
                "timestamp": "2013-08-06T13:00:15.494Z",
                "bikes": 4,
                "slots": 12,
                "marker-color": "#FFFF63"
            },
            "geometry": {
                "type": "Point",
                "coordinates": [
                    3.17256,
                    50.6787
                ]
            }
        },
        {
            "type": "Feature",
            "id": 73,
            "properties": {
                "name": "Place Spriet",
                "timestamp": "2013-08-06T13:00:16.351Z",
                "bikes": 17,
                "slots": 7,
                "marker-color": "#70E588"
            },
            "geometry": {
                "type": "Point",
                "coordinates": [
                    3.18514,
                    50.6739
                ]
            }
        },
        {
            "type": "Feature",
            "id": 74,
            "properties": {
                "name": "Gare Jean Lebas",
                "timestamp": "2013-08-06T13:00:17.199Z",
                "bikes": 6,
                "slots": 11,
                "marker-color": "#70E588"
            },
            "geometry": {
                "type": "Point",
                "coordinates": [
                    3.16422,
                    50.6955
                ]
            }
        },
        {
            "type": "Feature",
            "id": 75,
            "properties": {
                "name": "Louise de Bettignies",
                "timestamp": "2013-08-06T13:00:18.026Z",
                "bikes": 13,
                "slots": 17,
                "marker-color": "#70E588"
            },
            "geometry": {
                "type": "Point",
                "coordinates": [
                    3.06499,
                    50.6412
                ]
            }
        },
        {
            "type": "Feature",
            "id": 76,
            "properties": {
                "name": "Musee Art et Industrie",
                "timestamp": "2013-08-06T13:00:18.855Z",
                "bikes": 6,
                "slots": 8,
                "marker-color": "#70E588"
            },
            "geometry": {
                "type": "Point",
                "coordinates": [
                    3.16767,
                    50.6938
                ]
            }
        },
        {
            "type": "Feature",
            "id": 77,
            "properties": {
                "name": "Roubaix Mairie",
                "timestamp": "2013-08-06T13:00:19.682Z",
                "bikes": 5,
                "slots": 25,
                "marker-color": "#70E588"
            },
            "geometry": {
                "type": "Point",
                "coordinates": [
                    3.17392,
                    50.6918
                ]
            }
        },
        {
            "type": "Feature",
            "id": 78,
            "properties": {
                "name": "Les Gobelins",
                "timestamp": "2013-08-06T13:00:20.510Z",
                "bikes": 4,
                "slots": 8,
                "marker-color": "#FFFF63"
            },
            "geometry": {
                "type": "Point",
                "coordinates": [
                    3.17216,
                    50.6941
                ]
            }
        },
        {
            "type": "Feature",
            "id": 79,
            "properties": {
                "name": "Place Trichon",
                "timestamp": "2013-08-06T12:59:18.240Z",
                "bikes": 7,
                "slots": 9,
                "marker-color": "#70E588"
            },
            "geometry": {
                "type": "Point",
                "coordinates": [
                    3.16912,
                    50.6903
                ]
            }
        },
        {
            "type": "Feature",
            "id": 80,
            "properties": {
                "name": "Centre Nautique",
                "timestamp": "2013-08-06T12:59:19.068Z",
                "bikes": 4,
                "slots": 10,
                "marker-color": "#FFFF63"
            },
            "geometry": {
                "type": "Point",
                "coordinates": [
                    3.1627,
                    50.6914
                ]
            }
        },
        {
            "type": "Feature",
            "id": 81,
            "properties": {
                "name": "Epeule Montesquieu",
                "timestamp": "2013-08-06T12:59:19.895Z",
                "bikes": 6,
                "slots": 10,
                "marker-color": "#70E588"
            },
            "geometry": {
                "type": "Point",
                "coordinates": [
                    3.16327,
                    50.684
                ]
            }
        },
        {
            "type": "Feature",
            "id": 82,
            "properties": {
                "name": "Charles de Gaulle",
                "timestamp": "2013-08-06T12:59:20.722Z",
                "bikes": 7,
                "slots": 9,
                "marker-color": "#70E588"
            },
            "geometry": {
                "type": "Point",
                "coordinates": [
                    3.17001,
                    50.6865
                ]
            }
        },
        {
            "type": "Feature",
            "id": 83,
            "properties": {
                "name": "Bvrd Armentieres",
                "timestamp": "2013-08-06T12:59:21.550Z",
                "bikes": 5,
                "slots": 13,
                "marker-color": "#70E588"
            },
            "geometry": {
                "type": "Point",
                "coordinates": [
                    3.15966,
                    50.6994
                ]
            }
        },
        {
            "type": "Feature",
            "id": 84,
            "properties": {
                "name": "Pellart",
                "timestamp": "2013-08-06T12:59:22.375Z",
                "bikes": 7,
                "slots": 8,
                "marker-color": "#70E588"
            },
            "geometry": {
                "type": "Point",
                "coordinates": [
                    3.18078,
                    50.6954
                ]
            }
        },
        {
            "type": "Feature",
            "id": 85,
            "properties": {
                "name": "Nations Unies",
                "timestamp": "2013-08-06T12:59:23.227Z",
                "bikes": 6,
                "slots": 12,
                "marker-color": "#70E588"
            },
            "geometry": {
                "type": "Point",
                "coordinates": [
                    3.18509,
                    50.6924
                ]
            }
        },
        {
            "type": "Feature",
            "id": 86,
            "properties": {
                "name": "Rue des Arts",
                "timestamp": "2013-08-06T12:59:24.056Z",
                "bikes": 17,
                "slots": 1,
                "marker-color": "#70E588"
            },
            "geometry": {
                "type": "Point",
                "coordinates": [
                    3.06555,
                    50.6391
                ]
            }
        },
        {
            "type": "Feature",
            "id": 87,
            "properties": {
                "name": "De la Vigne",
                "timestamp": "2013-08-06T12:59:24.884Z",
                "bikes": 8,
                "slots": 3,
                "marker-color": "#70E588"
            },
            "geometry": {
                "type": "Point",
                "coordinates": [
                    3.18407,
                    50.7008
                ]
            }
        },
        {
            "type": "Feature",
            "id": 88,
            "properties": {
                "name": "Motte Bossut",
                "timestamp": "2013-08-06T12:59:25.710Z",
                "bikes": 7,
                "slots": 11,
                "marker-color": "#70E588"
            },
            "geometry": {
                "type": "Point",
                "coordinates": [
                    3.17718,
                    50.6898
                ]
            }
        },
        {
            "type": "Feature",
            "id": 89,
            "properties": {
                "name": "Fosse aux Chenes",
                "timestamp": "2013-08-06T12:59:26.538Z",
                "bikes": 5,
                "slots": 9,
                "marker-color": "#70E588"
            },
            "geometry": {
                "type": "Point",
                "coordinates": [
                    3.17435,
                    50.6997
                ]
            }
        },
        {
            "type": "Feature",
            "id": 90,
            "properties": {
                "name": "Alsace",
                "timestamp": "2013-08-06T12:59:27.366Z",
                "bikes": 6,
                "slots": 10,
                "marker-color": "#70E588"
            },
            "geometry": {
                "type": "Point",
                "coordinates": [
                    3.16138,
                    50.7004
                ]
            }
        },
        {
            "type": "Feature",
            "id": 91,
            "properties": {
                "name": "Blanchemaille",
                "timestamp": "2013-08-06T12:59:28.194Z",
                "bikes": 6,
                "slots": 10,
                "marker-color": "#70E588"
            },
            "geometry": {
                "type": "Point",
                "coordinates": [
                    3.16713,
                    50.6963
                ]
            }
        },
        {
            "type": "Feature",
            "id": 92,
            "properties": {
                "name": "Chaptal",
                "timestamp": "2013-08-06T12:59:29.025Z",
                "bikes": 6,
                "slots": 6,
                "marker-color": "#70E588"
            },
            "geometry": {
                "type": "Point",
                "coordinates": [
                    3.19264,
                    50.6947
                ]
            }
        },
        {
            "type": "Feature",
            "id": 93,
            "properties": {
                "name": "Rue des Anges",
                "timestamp": "2013-08-06T12:59:29.852Z",
                "bikes": 5,
                "slots": 5,
                "marker-color": "#70E588"
            },
            "geometry": {
                "type": "Point",
                "coordinates": [
                    3.15634,
                    50.7198
                ]
            }
        },
        {
            "type": "Feature",
            "id": 94,
            "properties": {
                "name": "Theatre Tourcoing",
                "timestamp": "2013-08-06T12:59:30.684Z",
                "bikes": 6,
                "slots": 11,
                "marker-color": "#70E588"
            },
            "geometry": {
                "type": "Point",
                "coordinates": [
                    3.15266,
                    50.7207
                ]
            }
        },
        {
            "type": "Feature",
            "id": 95,
            "properties": {
                "name": "Bvrd de l Egalite",
                "timestamp": "2013-08-06T12:59:31.535Z",
                "bikes": 6,
                "slots": 8,
                "marker-color": "#70E588"
            },
            "geometry": {
                "type": "Point",
                "coordinates": [
                    3.16752,
                    50.7303
                ]
            }
        },
        {
            "type": "Feature",
            "id": 96,
            "properties": {
                "name": "Flandres Euralille",
                "timestamp": "2013-08-06T12:59:32.365Z",
                "bikes": 32,
                "slots": 8,
                "marker-color": "#70E588"
            },
            "geometry": {
                "type": "Point",
                "coordinates": [
                    3.07101,
                    50.637
                ]
            }
        },
        {
            "type": "Feature",
            "id": 97,
            "properties": {
                "name": "Poste",
                "timestamp": "2013-08-06T12:59:33.195Z",
                "bikes": 5,
                "slots": 7,
                "marker-color": "#70E588"
            },
            "geometry": {
                "type": "Point",
                "coordinates": [
                    3.1634,
                    50.7192
                ]
            }
        },
        {
            "type": "Feature",
            "id": 98,
            "properties": {
                "name": "Le Corbusier",
                "timestamp": "2013-08-06T12:59:34.023Z",
                "bikes": 9,
                "slots": 9,
                "marker-color": "#70E588"
            },
            "geometry": {
                "type": "Point",
                "coordinates": [
                    3.17085,
                    50.7223
                ]
            }
        },
        {
            "type": "Feature",
            "id": 99,
            "properties": {
                "name": "Tourcoing gare",
                "timestamp": "2013-08-06T12:59:34.851Z",
                "bikes": 6,
                "slots": 12,
                "marker-color": "#70E588"
            },
            "geometry": {
                "type": "Point",
                "coordinates": [
                    3.16783,
                    50.7168
                ]
            }
        },
        {
            "type": "Feature",
            "id": 100,
            "properties": {
                "name": "Victoire",
                "timestamp": "2013-08-06T12:59:35.678Z",
                "bikes": 6,
                "slots": 6,
                "marker-color": "#70E588"
            },
            "geometry": {
                "type": "Point",
                "coordinates": [
                    3.15749,
                    50.7182
                ]
            }
        },
        {
            "type": "Feature",
            "id": 101,
            "properties": {
                "name": "F Roosevelt",
                "timestamp": "2013-08-06T12:59:36.505Z",
                "bikes": 3,
                "slots": 9,
                "marker-color": "#FFFF63"
            },
            "geometry": {
                "type": "Point",
                "coordinates": [
                    3.16646,
                    50.7274
                ]
            }
        },
        {
            "type": "Feature",
            "id": 102,
            "properties": {
                "name": "Jardin Botanique",
                "timestamp": "2013-08-06T12:59:37.331Z",
                "bikes": 10,
                "slots": 8,
                "marker-color": "#70E588"
            },
            "geometry": {
                "type": "Point",
                "coordinates": [
                    3.1657,
                    50.7247
                ]
            }
        },
        {
            "type": "Feature",
            "id": 103,
            "properties": {
                "name": "Cavell",
                "timestamp": "2013-08-06T12:59:38.159Z",
                "bikes": 6,
                "slots": 6,
                "marker-color": "#70E588"
            },
            "geometry": {
                "type": "Point",
                "coordinates": [
                    3.16379,
                    50.7227
                ]
            }
        },
        {
            "type": "Feature",
            "id": 104,
            "properties": {
                "name": "Rouget de l Isle",
                "timestamp": "2013-08-06T12:59:38.988Z",
                "bikes": 3,
                "slots": 12,
                "marker-color": "#FFFF63"
            },
            "geometry": {
                "type": "Point",
                "coordinates": [
                    3.16799,
                    50.7341
                ]
            }
        },
        {
            "type": "Feature",
            "id": 105,
            "properties": {
                "name": "Rue Saint Blaise",
                "timestamp": "2013-08-06T12:59:39.815Z",
                "bikes": 4,
                "slots": 8,
                "marker-color": "#FFFF63"
            },
            "geometry": {
                "type": "Point",
                "coordinates": [
                    3.15883,
                    50.7288
                ]
            }
        },
        {
            "type": "Feature",
            "id": 106,
            "properties": {
                "name": "Rue de Menin",
                "timestamp": "2013-08-06T12:59:40.661Z",
                "bikes": 1,
                "slots": 11,
                "marker-color": "#FFFF63"
            },
            "geometry": {
                "type": "Point",
                "coordinates": [
                    3.15405,
                    50.7288
                ]
            }
        },
        {
            "type": "Feature",
            "id": 107,
            "properties": {
                "name": "Gare Lille Flandres",
                "timestamp": "2013-08-06T12:59:41.490Z",
                "bikes": 19,
                "slots": 1,
                "marker-color": "#70E588"
            },
            "geometry": {
                "type": "Point",
                "coordinates": [
                    3.06968,
                    50.636
                ]
            }
        },
        {
            "type": "Feature",
            "id": 108,
            "properties": {
                "name": "Tourcoing Mairie",
                "timestamp": "2013-08-06T12:59:42.315Z",
                "bikes": 7,
                "slots": 15,
                "marker-color": "#70E588"
            },
            "geometry": {
                "type": "Point",
                "coordinates": [
                    3.16034,
                    50.7239
                ]
            }
        },
        {
            "type": "Feature",
            "id": 109,
            "properties": {
                "name": "Colbert",
                "timestamp": "2013-08-06T12:59:43.144Z",
                "bikes": 2,
                "slots": 16,
                "marker-color": "#FFFF63"
            },
            "geometry": {
                "type": "Point",
                "coordinates": [
                    3.15655,
                    50.7255
                ]
            }
        },
        {
            "type": "Feature",
            "id": 110,
            "properties": {
                "name": "Rue des Poutrains",
                "timestamp": "2013-08-06T12:59:43.970Z",
                "bikes": 6,
                "slots": 10,
                "marker-color": "#70E588"
            },
            "geometry": {
                "type": "Point",
                "coordinates": [
                    3.15038,
                    50.7226
                ]
            }
        },
        {
            "type": "Feature",
            "id": 111,
            "properties": {
                "name": "Avenue Millet",
                "timestamp": "2013-08-06T12:59:44.797Z",
                "bikes": 6,
                "slots": 6,
                "marker-color": "#70E588"
            },
            "geometry": {
                "type": "Point",
                "coordinates": [
                    3.15068,
                    50.725
                ]
            }
        },
        {
            "type": "Feature",
            "id": 112,
            "properties": {
                "name": "Sebastopol",
                "timestamp": "2013-08-06T12:59:45.624Z",
                "bikes": 5,
                "slots": 13,
                "marker-color": "#70E588"
            },
            "geometry": {
                "type": "Point",
                "coordinates": [
                    3.16224,
                    50.7173
                ]
            }
        },
        {
            "type": "Feature",
            "id": 113,
            "properties": {
                "name": "Rue de Roubaix",
                "timestamp": "2013-08-06T12:59:46.451Z",
                "bikes": 4,
                "slots": 8,
                "marker-color": "#FFFF63"
            },
            "geometry": {
                "type": "Point",
                "coordinates": [
                    3.16501,
                    50.7134
                ]
            }
        },
        {
            "type": "Feature",
            "id": 114,
            "properties": {
                "name": "Pont de Neuville",
                "timestamp": "2013-08-06T12:59:47.278Z",
                "bikes": 7,
                "slots": 9,
                "marker-color": "#70E588"
            },
            "geometry": {
                "type": "Point",
                "coordinates": [
                    3.17117,
                    50.737
                ]
            }
        },
        {
            "type": "Feature",
            "id": 115,
            "properties": {
                "name": "Charles Wattinne",
                "timestamp": "2013-08-06T12:59:48.105Z",
                "bikes": 14,
                "slots": 2,
                "marker-color": "#70E588"
            },
            "geometry": {
                "type": "Point",
                "coordinates": [
                    3.15718,
                    50.7147
                ]
            }
        },
        {
            "type": "Feature",
            "id": 116,
            "properties": {
                "name": "Carliers",
                "timestamp": "2013-08-06T12:59:48.932Z",
                "bikes": 4,
                "slots": 8,
                "marker-color": "#FFFF63"
            },
            "geometry": {
                "type": "Point",
                "coordinates": [
                    3.15988,
                    50.7107
                ]
            }
        },
        {
            "type": "Feature",
            "id": 117,
            "properties": {
                "name": "Mercure",
                "timestamp": "2013-08-06T12:59:49.781Z",
                "bikes": 10,
                "slots": 7,
                "marker-color": "#70E588"
            },
            "geometry": {
                "type": "Point",
                "coordinates": [
                    3.16052,
                    50.7047
                ]
            }
        },
        {
            "type": "Feature",
            "id": 118,
            "properties": {
                "name": "Molinel",
                "timestamp": "2013-08-06T12:59:50.612Z",
                "bikes": 11,
                "slots": 11,
                "marker-color": "#70E588"
            },
            "geometry": {
                "type": "Point",
                "coordinates": [
                    3.06801,
                    50.6346
                ]
            }
        },
        {
            "type": "Feature",
            "id": 119,
            "properties": {
                "name": "Place Roussel",
                "timestamp": "2013-08-06T12:59:51.439Z",
                "bikes": 3,
                "slots": 17,
                "marker-color": "#FFFF63"
            },
            "geometry": {
                "type": "Point",
                "coordinates": [
                    3.15798,
                    50.721
                ]
            }
        },
        {
            "type": "Feature",
            "id": 120,
            "properties": {
                "name": "Phalempins",
                "timestamp": "2013-08-06T12:59:52.267Z",
                "bikes": 2,
                "slots": 14,
                "marker-color": "#FFFF63"
            },
            "geometry": {
                "type": "Point",
                "coordinates": [
                    3.15766,
                    50.7323
                ]
            }
        },
        {
            "type": "Feature",
            "id": 121,
            "properties": {
                "name": "Wattrelos Place",
                "timestamp": "2013-08-06T12:59:53.095Z",
                "bikes": 10,
                "slots": 8,
                "marker-color": "#70E588"
            },
            "geometry": {
                "type": "Point",
                "coordinates": [
                    3.21501,
                    50.7012
                ]
            }
        },
        {
            "type": "Feature",
            "id": 122,
            "properties": {
                "name": "Stalingrad",
                "timestamp": "2013-08-06T12:59:53.922Z",
                "bikes": 9,
                "slots": 3,
                "marker-color": "#70E588"
            },
            "geometry": {
                "type": "Point",
                "coordinates": [
                    3.20916,
                    50.6963
                ]
            }
        },
        {
            "type": "Feature",
            "id": 123,
            "properties": {
                "name": "Tanneurs",
                "timestamp": "2013-08-06T12:59:54.748Z",
                "bikes": 13,
                "slots": 23,
                "marker-color": "#70E588"
            },
            "geometry": {
                "type": "Point",
                "coordinates": [
                    3.0648,
                    50.635
                ]
            }
        },
        {
            "type": "Feature",
            "id": 124,
            "properties": {
                "name": "Palais Rameau",
                "timestamp": "2013-08-06T12:59:55.575Z",
                "bikes": 9,
                "slots": 31,
                "marker-color": "#70E588"
            },
            "geometry": {
                "type": "Point",
                "coordinates": [
                    3.04834,
                    50.6347
                ]
            }
        },
        {
            "type": "Feature",
            "id": 125,
            "properties": {
                "name": "St Sebastien",
                "timestamp": "2013-08-06T12:59:56.423Z",
                "bikes": 6,
                "slots": 14,
                "marker-color": "#70E588"
            },
            "geometry": {
                "type": "Point",
                "coordinates": [
                    3.05938,
                    50.6472
                ]
            }
        },
        {
            "type": "Feature",
            "id": 126,
            "properties": {
                "name": "Jardin Vauban",
                "timestamp": "2013-08-06T12:59:57.252Z",
                "bikes": 10,
                "slots": 8,
                "marker-color": "#70E588"
            },
            "geometry": {
                "type": "Point",
                "coordinates": [
                    3.05045,
                    50.6361
                ]
            }
        },
        {
            "type": "Feature",
            "id": 127,
            "properties": {
                "name": "Rue de Gand",
                "timestamp": "2013-08-06T12:59:58.079Z",
                "bikes": 3,
                "slots": 17,
                "marker-color": "#FFFF63"
            },
            "geometry": {
                "type": "Point",
                "coordinates": [
                    3.06745,
                    50.6431
                ]
            }
        },
        {
            "type": "Feature",
            "id": 128,
            "properties": {
                "name": "Pont Neuf",
                "timestamp": "2013-08-06T12:59:58.906Z",
                "bikes": 10,
                "slots": 10,
                "marker-color": "#70E588"
            },
            "geometry": {
                "type": "Point",
                "coordinates": [
                    3.06294,
                    50.6443
                ]
            }
        },
        {
            "type": "Feature",
            "id": 129,
            "properties": {
                "name": "Place aux Bleuets",
                "timestamp": "2013-08-06T12:59:59.733Z",
                "bikes": 13,
                "slots": 3,
                "marker-color": "#70E588"
            },
            "geometry": {
                "type": "Point",
                "coordinates": [
                    3.06787,
                    50.6414
                ]
            }
        },
        {
            "type": "Feature",
            "id": 130,
            "properties": {
                "name": "Port de Lille",
                "timestamp": "2013-08-06T13:00:00.561Z",
                "bikes": 14,
                "slots": 12,
                "marker-color": "#70E588"
            },
            "geometry": {
                "type": "Point",
                "coordinates": [
                    3.03568,
                    50.6302
                ]
            }
        },
        {
            "type": "Feature",
            "id": 131,
            "properties": {
                "name": "Place Catinat",
                "timestamp": "2013-08-06T12:59:04.986Z",
                "bikes": 15,
                "slots": 5,
                "marker-color": "#70E588"
            },
            "geometry": {
                "type": "Point",
                "coordinates": [
                    3.04121,
                    50.6341
                ]
            }
        },
        {
            "type": "Feature",
            "id": 132,
            "properties": {
                "name": "Leclerc",
                "timestamp": "2013-08-06T12:59:05.812Z",
                "bikes": 0,
                "slots": 0,
                "marker-color": "#F85E35"
            },
            "geometry": {
                "type": "Point",
                "coordinates": [
                    3.04331,
                    50.629
                ]
            }
        },
        {
            "type": "Feature",
            "id": 133,
            "properties": {
                "name": "Cormontaigne",
                "timestamp": "2013-08-06T12:59:06.637Z",
                "bikes": 23,
                "slots": 5,
                "marker-color": "#70E588"
            },
            "geometry": {
                "type": "Point",
                "coordinates": [
                    3.03991,
                    50.6262
                ]
            }
        },
        {
            "type": "Feature",
            "id": 134,
            "properties": {
                "name": "Fulton",
                "timestamp": "2013-08-06T12:59:07.464Z",
                "bikes": 7,
                "slots": 5,
                "marker-color": "#70E588"
            },
            "geometry": {
                "type": "Point",
                "coordinates": [
                    3.03755,
                    50.6234
                ]
            }
        },
        {
            "type": "Feature",
            "id": 135,
            "properties": {
                "name": "Place Casquette",
                "timestamp": "2013-08-06T12:59:08.292Z",
                "bikes": 11,
                "slots": 7,
                "marker-color": "#70E588"
            },
            "geometry": {
                "type": "Point",
                "coordinates": [
                    3.04532,
                    50.6243
                ]
            }
        },
        {
            "type": "Feature",
            "id": 136,
            "properties": {
                "name": "Marche de Wazemmes",
                "timestamp": "2013-08-06T13:00:12.064Z",
                "bikes": 4,
                "slots": 19,
                "marker-color": "#FFFF63"
            },
            "geometry": {
                "type": "Point",
                "coordinates": [
                    3.05017,
                    50.6277
                ]
            }
        },
        {
            "type": "Feature",
            "id": 137,
            "properties": {
                "name": "Maison Folie Wazemmes",
                "timestamp": "2013-08-06T13:00:12.947Z",
                "bikes": 17,
                "slots": 3,
                "marker-color": "#70E588"
            },
            "geometry": {
                "type": "Point",
                "coordinates": [
                    3.04896,
                    50.6247
                ]
            }
        },
        {
            "type": "Feature",
            "id": 138,
            "properties": {
                "name": "Metro Gambetta",
                "timestamp": "2013-08-06T13:00:13.791Z",
                "bikes": 4,
                "slots": 12,
                "marker-color": "#FFFF63"
            },
            "geometry": {
                "type": "Point",
                "coordinates": [
                    3.05173,
                    50.6261
                ]
            }
        },
        {
            "type": "Feature",
            "id": 139,
            "properties": {
                "name": "Buisson",
                "timestamp": "2013-08-06T13:00:14.654Z",
                "bikes": 2,
                "slots": 14,
                "marker-color": "#FFFF63"
            },
            "geometry": {
                "type": "Point",
                "coordinates": [
                    3.088,
                    50.6565
                ]
            }
        },
        {
            "type": "Feature",
            "id": 140,
            "properties": {
                "name": "Place Philippe Lebon",
                "timestamp": "2013-08-06T13:00:15.505Z",
                "bikes": 8,
                "slots": 10,
                "marker-color": "#70E588"
            },
            "geometry": {
                "type": "Point",
                "coordinates": [
                    3.06197,
                    50.6276
                ]
            }
        },
        {
            "type": "Feature",
            "id": 141,
            "properties": {
                "name": "Theatre Sebastopol",
                "timestamp": "2013-08-06T13:00:16.338Z",
                "bikes": 11,
                "slots": 13,
                "marker-color": "#70E588"
            },
            "geometry": {
                "type": "Point",
                "coordinates": [
                    3.05829,
                    50.629
                ]
            }
        },
        {
            "type": "Feature",
            "id": 142,
            "properties": {
                "name": "Gambetta Utrecht",
                "timestamp": "2013-08-06T13:00:17.168Z",
                "bikes": 0,
                "slots": 18,
                "marker-color": "#F85E35"
            },
            "geometry": {
                "type": "Point",
                "coordinates": [
                    3.05371,
                    50.6291
                ]
            }
        },
        {
            "type": "Feature",
            "id": 143,
            "properties": {
                "name": "Brule Maison",
                "timestamp": "2013-08-06T13:00:17.997Z",
                "bikes": 3,
                "slots": 15,
                "marker-color": "#FFFF63"
            },
            "geometry": {
                "type": "Point",
                "coordinates": [
                    3.05667,
                    50.6265
                ]
            }
        },
        {
            "type": "Feature",
            "id": 144,
            "properties": {
                "name": "Artois",
                "timestamp": "2013-08-06T13:00:18.826Z",
                "bikes": 0,
                "slots": 18,
                "marker-color": "#F85E35"
            },
            "geometry": {
                "type": "Point",
                "coordinates": [
                    3.0612,
                    50.6263
                ]
            }
        },
        {
            "type": "Feature",
            "id": 145,
            "properties": {
                "name": "Boulevard Louis XIV",
                "timestamp": "2013-08-06T13:00:19.656Z",
                "bikes": 6,
                "slots": 18,
                "marker-color": "#70E588"
            },
            "geometry": {
                "type": "Point",
                "coordinates": [
                    3.06923,
                    50.6282
                ]
            }
        },
        {
            "type": "Feature",
            "id": 146,
            "properties": {
                "name": "Porte de Douai",
                "timestamp": "2013-08-06T13:00:20.485Z",
                "bikes": 25,
                "slots": 7,
                "marker-color": "#70E588"
            },
            "geometry": {
                "type": "Point",
                "coordinates": [
                    3.0722,
                    50.6183
                ]
            }
        },
        {
            "type": "Feature",
            "id": 147,
            "properties": {
                "name": "Place Deliot",
                "timestamp": "2013-08-06T13:00:21.333Z",
                "bikes": 9,
                "slots": 15,
                "marker-color": "#70E588"
            },
            "geometry": {
                "type": "Point",
                "coordinates": [
                    3.06839,
                    50.6196
                ]
            }
        },
        {
            "type": "Feature",
            "id": 148,
            "properties": {
                "name": "Massena",
                "timestamp": "2013-08-06T13:00:22.160Z",
                "bikes": 10,
                "slots": 22,
                "marker-color": "#70E588"
            },
            "geometry": {
                "type": "Point",
                "coordinates": [
                    3.05474,
                    50.6316
                ]
            }
        },
        {
            "type": "Feature",
            "id": 149,
            "properties": {
                "name": "Rue d'Arras",
                "timestamp": "2013-08-06T13:00:22.988Z",
                "bikes": 0,
                "slots": 25,
                "marker-color": "#F85E35"
            },
            "geometry": {
                "type": "Point",
                "coordinates": [
                    3.067,
                    50.6222
                ]
            }
        },
        {
            "type": "Feature",
            "id": 150,
            "properties": {
                "name": "JB Lebas",
                "timestamp": "2013-08-06T13:00:23.813Z",
                "bikes": 1,
                "slots": 31,
                "marker-color": "#FFFF63"
            },
            "geometry": {
                "type": "Point",
                "coordinates": [
                    3.06869,
                    50.6248
                ]
            }
        },
        {
            "type": "Feature",
            "id": 151,
            "properties": {
                "name": "Place Colette Besson",
                "timestamp": "2013-08-06T13:00:24.640Z",
                "bikes": 0,
                "slots": 22,
                "marker-color": "#F85E35"
            },
            "geometry": {
                "type": "Point",
                "coordinates": [
                    3.0638,
                    50.6228
                ]
            }
        },
        {
            "type": "Feature",
            "id": 152,
            "properties": {
                "name": "Porte des Postes",
                "timestamp": "2013-08-06T13:00:25.468Z",
                "bikes": 14,
                "slots": 24,
                "marker-color": "#70E588"
            },
            "geometry": {
                "type": "Point",
                "coordinates": [
                    3.04925,
                    50.6186
                ]
            }
        },
        {
            "type": "Feature",
            "id": 153,
            "properties": {
                "name": "Metro Wazemmes",
                "timestamp": "2013-08-06T13:00:26.297Z",
                "bikes": 10,
                "slots": 10,
                "marker-color": "#70E588"
            },
            "geometry": {
                "type": "Point",
                "coordinates": [
                    3.05156,
                    50.6234
                ]
            }
        },
        {
            "type": "Feature",
            "id": 154,
            "properties": {
                "name": "Porte d'Arras",
                "timestamp": "2013-08-06T13:00:27.125Z",
                "bikes": 11,
                "slots": 13,
                "marker-color": "#70E588"
            },
            "geometry": {
                "type": "Point",
                "coordinates": [
                    3.06176,
                    50.6178
                ]
            }
        },
        {
            "type": "Feature",
            "id": 155,
            "properties": {
                "name": "Bd Victor Hugo",
                "timestamp": "2013-08-06T13:00:27.951Z",
                "bikes": 8,
                "slots": 10,
                "marker-color": "#70E588"
            },
            "geometry": {
                "type": "Point",
                "coordinates": [
                    3.05547,
                    50.6203
                ]
            }
        },
        {
            "type": "Feature",
            "id": 156,
            "properties": {
                "name": "Barthelemy Delespaul",
                "timestamp": "2013-08-06T13:00:28.778Z",
                "bikes": 7,
                "slots": 11,
                "marker-color": "#70E588"
            },
            "geometry": {
                "type": "Point",
                "coordinates": [
                    3.0589,
                    50.6242
                ]
            }
        },
        {
            "type": "Feature",
            "id": 157,
            "properties": {
                "name": "Porte de Valenciennes",
                "timestamp": "2013-08-06T13:00:29.605Z",
                "bikes": 0,
                "slots": 24,
                "marker-color": "#F85E35"
            },
            "geometry": {
                "type": "Point",
                "coordinates": [
                    3.07895,
                    50.6209
                ]
            }
        },
        {
            "type": "Feature",
            "id": 158,
            "properties": {
                "name": "Belfort",
                "timestamp": "2013-08-06T13:00:30.451Z",
                "bikes": 8,
                "slots": 22,
                "marker-color": "#70E588"
            },
            "geometry": {
                "type": "Point",
                "coordinates": [
                    3.07713,
                    50.6222
                ]
            }
        },
        {
            "type": "Feature",
            "id": 159,
            "properties": {
                "name": "Republique Beaux Arts",
                "timestamp": "2013-08-06T13:00:31.278Z",
                "bikes": 22,
                "slots": 2,
                "marker-color": "#70E588"
            },
            "geometry": {
                "type": "Point",
                "coordinates": [
                    3.0603,
                    50.6309
                ]
            }
        },
        {
            "type": "Feature",
            "id": 160,
            "properties": {
                "name": "Trevise",
                "timestamp": "2013-08-06T13:00:32.105Z",
                "bikes": 2,
                "slots": 18,
                "marker-color": "#FFFF63"
            },
            "geometry": {
                "type": "Point",
                "coordinates": [
                    3.07236,
                    50.6212
                ]
            }
        },
        {
            "type": "Feature",
            "id": 161,
            "properties": {
                "name": "Lille Grand Palais",
                "timestamp": "2013-08-06T13:00:32.931Z",
                "bikes": 10,
                "slots": 14,
                "marker-color": "#70E588"
            },
            "geometry": {
                "type": "Point",
                "coordinates": [
                    3.07522,
                    50.6292
                ]
            }
        },
        {
            "type": "Feature",
            "id": 162,
            "properties": {
                "name": "Zenith",
                "timestamp": "2013-08-06T13:00:33.759Z",
                "bikes": 6,
                "slots": 24,
                "marker-color": "#70E588"
            },
            "geometry": {
                "type": "Point",
                "coordinates": [
                    3.07644,
                    50.633
                ]
            }
        },
        {
            "type": "Feature",
            "id": 163,
            "properties": {
                "name": "Hotel de Region",
                "timestamp": "2013-08-06T13:00:34.590Z",
                "bikes": 9,
                "slots": 23,
                "marker-color": "#70E588"
            },
            "geometry": {
                "type": "Point",
                "coordinates": [
                    3.07822,
                    50.6297
                ]
            }
        },
        {
            "type": "Feature",
            "id": 164,
            "properties": {
                "name": "Mairie de Lille",
                "timestamp": "2013-08-06T13:00:35.417Z",
                "bikes": 10,
                "slots": 10,
                "marker-color": "#70E588"
            },
            "geometry": {
                "type": "Point",
                "coordinates": [
                    3.07139,
                    50.6318
                ]
            }
        },
        {
            "type": "Feature",
            "id": 165,
            "properties": {
                "name": "Place Tacq",
                "timestamp": "2013-08-06T13:00:36.246Z",
                "bikes": 11,
                "slots": 7,
                "marker-color": "#70E588"
            },
            "geometry": {
                "type": "Point",
                "coordinates": [
                    3.03548,
                    50.6211
                ]
            }
        },
        {
            "type": "Feature",
            "id": 166,
            "properties": {
                "name": "Delesalle Mediatheque",
                "timestamp": "2013-08-06T13:00:37.075Z",
                "bikes": 13,
                "slots": 5,
                "marker-color": "#70E588"
            },
            "geometry": {
                "type": "Point",
                "coordinates": [
                    3.06627,
                    50.6324
                ]
            }
        },
        {
            "type": "Feature",
            "id": 167,
            "properties": {
                "name": "Montebello",
                "timestamp": "2013-08-06T13:00:40.904Z",
                "bikes": 0,
                "slots": 24,
                "marker-color": "#F85E35"
            },
            "geometry": {
                "type": "Point",
                "coordinates": [
                    3.04534,
                    50.622
                ]
            }
        },
        {
            "type": "Feature",
            "id": 168,
            "properties": {
                "name": "Nationale Rue du Port",
                "timestamp": "2013-08-06T13:00:41.730Z",
                "bikes": 2,
                "slots": 22,
                "marker-color": "#FFFF63"
            },
            "geometry": {
                "type": "Point",
                "coordinates": [
                    3.04778,
                    50.6308
                ]
            }
        },
        {
            "type": "Feature",
            "id": 169,
            "properties": {
                "name": "Chasseurs de Driant",
                "timestamp": "2013-08-06T13:00:42.576Z",
                "bikes": 8,
                "slots": 14,
                "marker-color": "#70E588"
            },
            "geometry": {
                "type": "Point",
                "coordinates": [
                    3.03254,
                    50.6189
                ]
            }
        },
        {
            "type": "Feature",
            "id": 170,
            "properties": {
                "name": "Place de Strasbourg",
                "timestamp": "2013-08-06T13:00:43.402Z",
                "bikes": 13,
                "slots": 3,
                "marker-color": "#70E588"
            },
            "geometry": {
                "type": "Point",
                "coordinates": [
                    3.05531,
                    50.6337
                ]
            }
        },
        {
            "type": "Feature",
            "id": 171,
            "properties": {
                "name": "Cite Administrative",
                "timestamp": "2013-08-06T13:00:44.231Z",
                "bikes": 11,
                "slots": 5,
                "marker-color": "#70E588"
            },
            "geometry": {
                "type": "Point",
                "coordinates": [
                    3.07399,
                    50.6342
                ]
            }
        },
        {
            "type": "Feature",
            "id": 172,
            "properties": {
                "name": "Bois Blancs",
                "timestamp": "2013-08-06T13:00:45.059Z",
                "bikes": 0,
                "slots": 22,
                "marker-color": "#F85E35"
            },
            "geometry": {
                "type": "Point",
                "coordinates": [
                    3.03078,
                    50.634
                ]
            }
        },
        {
            "type": "Feature",
            "id": 173,
            "properties": {
                "name": "Canteleu",
                "timestamp": "2013-08-06T13:00:45.886Z",
                "bikes": 7,
                "slots": 11,
                "marker-color": "#70E588"
            },
            "geometry": {
                "type": "Point",
                "coordinates": [
                    3.02431,
                    50.6373
                ]
            }
        },
        {
            "type": "Feature",
            "id": 174,
            "properties": {
                "name": "St Maurice Pellevoisin",
                "timestamp": "2013-08-06T13:00:46.714Z",
                "bikes": 3,
                "slots": 21,
                "marker-color": "#FFFF63"
            },
            "geometry": {
                "type": "Point",
                "coordinates": [
                    3.08798,
                    50.6423
                ]
            }
        },
        {
            "type": "Feature",
            "id": 175,
            "properties": {
                "name": "Faubourg de Roubaix",
                "timestamp": "2013-08-06T13:00:47.541Z",
                "bikes": 11,
                "slots": 6,
                "marker-color": "#70E588"
            },
            "geometry": {
                "type": "Point",
                "coordinates": [
                    3.08249,
                    50.641
                ]
            }
        },
        {
            "type": "Feature",
            "id": 176,
            "properties": {
                "name": "Eugene Jacquet",
                "timestamp": "2013-08-06T13:00:48.368Z",
                "bikes": 8,
                "slots": 12,
                "marker-color": "#70E588"
            },
            "geometry": {
                "type": "Point",
                "coordinates": [
                    3.08489,
                    50.6373
                ]
            }
        },
        {
            "type": "Feature",
            "id": 177,
            "properties": {
                "name": "Fives",
                "timestamp": "2013-08-06T13:00:49.194Z",
                "bikes": 5,
                "slots": 18,
                "marker-color": "#70E588"
            },
            "geometry": {
                "type": "Point",
                "coordinates": [
                    3.08965,
                    50.633
                ]
            }
        },
        {
            "type": "Feature",
            "id": 178,
            "properties": {
                "name": "Mont de Terre",
                "timestamp": "2013-08-06T13:00:50.021Z",
                "bikes": 13,
                "slots": 5,
                "marker-color": "#70E588"
            },
            "geometry": {
                "type": "Point",
                "coordinates": [
                    3.09136,
                    50.623
                ]
            }
        },
        {
            "type": "Feature",
            "id": 179,
            "properties": {
                "name": "Hotel de Police",
                "timestamp": "2013-08-06T13:00:50.847Z",
                "bikes": 9,
                "slots": 9,
                "marker-color": "#70E588"
            },
            "geometry": {
                "type": "Point",
                "coordinates": [
                    3.04852,
                    50.6155
                ]
            }
        },
        {
            "type": "Feature",
            "id": 180,
            "properties": {
                "name": "Cimetiere du Sud",
                "timestamp": "2013-08-06T13:00:51.695Z",
                "bikes": 7,
                "slots": 13,
                "marker-color": "#70E588"
            },
            "geometry": {
                "type": "Point",
                "coordinates": [
                    3.04722,
                    50.6131
                ]
            }
        },
        {
            "type": "Feature",
            "id": 181,
            "properties": {
                "name": "Place Richebe",
                "timestamp": "2013-08-06T13:00:52.522Z",
                "bikes": 29,
                "slots": 3,
                "marker-color": "#70E588"
            },
            "geometry": {
                "type": "Point",
                "coordinates": [
                    3.06231,
                    50.6324
                ]
            }
        },
        {
            "type": "Feature",
            "id": 182,
            "properties": {
                "name": "Petit Maroc",
                "timestamp": "2013-08-06T13:00:53.350Z",
                "bikes": 20,
                "slots": 10,
                "marker-color": "#70E588"
            },
            "geometry": {
                "type": "Point",
                "coordinates": [
                    3.08436,
                    50.6199
                ]
            }
        },
        {
            "type": "Feature",
            "id": 183,
            "properties": {
                "name": "Guinguette",
                "timestamp": "2013-08-06T13:00:54.176Z",
                "bikes": 8,
                "slots": 2,
                "marker-color": "#70E588"
            },
            "geometry": {
                "type": "Point",
                "coordinates": [
                    3.11509,
                    50.6353
                ]
            }
        },
        {
            "type": "Feature",
            "id": 184,
            "properties": {
                "name": "Gare Lille Europe",
                "timestamp": "2013-08-06T13:00:55.004Z",
                "bikes": 11,
                "slots": 21,
                "marker-color": "#70E588"
            },
            "geometry": {
                "type": "Point",
                "coordinates": [
                    3.0752,
                    50.64
                ]
            }
        },
        {
            "type": "Feature",
            "id": 185,
            "properties": {
                "name": "EuraTechnologies",
                "timestamp": "2013-08-06T13:00:55.829Z",
                "bikes": 13,
                "slots": 11,
                "marker-color": "#70E588"
            },
            "geometry": {
                "type": "Point",
                "coordinates": [
                    3.02066,
                    50.6341
                ]
            }
        },
        {
            "type": "Feature",
            "id": 186,
            "properties": {
                "name": "Hellemmes",
                "timestamp": "2013-08-06T13:00:56.655Z",
                "bikes": 11,
                "slots": 13,
                "marker-color": "#70E588"
            },
            "geometry": {
                "type": "Point",
                "coordinates": [
                    3.10927,
                    50.6272
                ]
            }
        },
        {
            "type": "Feature",
            "id": 187,
            "properties": {
                "name": "Chanzy",
                "timestamp": "2013-08-06T13:00:57.481Z",
                "bikes": 5,
                "slots": 7,
                "marker-color": "#70E588"
            },
            "geometry": {
                "type": "Point",
                "coordinates": [
                    3.10073,
                    50.6252
                ]
            }
        },
        {
            "type": "Feature",
            "id": 188,
            "properties": {
                "name": "Roger Salengro",
                "timestamp": "2013-08-06T13:00:58.307Z",
                "bikes": 3,
                "slots": 9,
                "marker-color": "#FFFF63"
            },
            "geometry": {
                "type": "Point",
                "coordinates": [
                    3.10402,
                    50.6287
                ]
            }
        },
        {
            "type": "Feature",
            "id": 189,
            "properties": {
                "name": "Jules Guesde",
                "timestamp": "2013-08-06T13:00:59.136Z",
                "bikes": 4,
                "slots": 8,
                "marker-color": "#FFFF63"
            },
            "geometry": {
                "type": "Point",
                "coordinates": [
                    3.11067,
                    50.6324
                ]
            }
        },
        {
            "type": "Feature",
            "id": 190,
            "properties": {
                "name": "Rue Nationale",
                "timestamp": "2013-08-06T13:00:59.962Z",
                "bikes": 27,
                "slots": 3,
                "marker-color": "#70E588"
            },
            "geometry": {
                "type": "Point",
                "coordinates": [
                    3.05802,
                    50.6351
                ]
            }
        },
        {
            "type": "Feature",
            "id": 191,
            "properties": {
                "name": "Boulevard de Metz",
                "timestamp": "2013-08-06T13:01:00.809Z",
                "bikes": 3,
                "slots": 15,
                "marker-color": "#FFFF63"
            },
            "geometry": {
                "type": "Point",
                "coordinates": [
                    3.0413,
                    50.6193
                ]
            }
        },
        {
            "type": "Feature",
            "id": 192,
            "properties": {
                "name": "Rue de Toul",
                "timestamp": "2013-08-06T13:01:01.659Z",
                "bikes": 17,
                "slots": 19,
                "marker-color": "#70E588"
            },
            "geometry": {
                "type": "Point",
                "coordinates": [
                    3.04499,
                    50.6339
                ]
            }
        },
        {
            "type": "Feature",
            "id": 193,
            "properties": {
                "name": "Louviere",
                "timestamp": "2013-08-06T13:01:02.488Z",
                "bikes": 3,
                "slots": 17,
                "marker-color": "#FFFF63"
            },
            "geometry": {
                "type": "Point",
                "coordinates": [
                    3.08605,
                    50.6451
                ]
            }
        },
        {
            "type": "Feature",
            "id": 194,
            "properties": {
                "name": "Square des Meres",
                "timestamp": "2013-08-06T13:01:03.320Z",
                "bikes": 15,
                "slots": 10,
                "marker-color": "#70E588"
            },
            "geometry": {
                "type": "Point",
                "coordinates": [
                    3.09654,
                    50.6342
                ]
            }
        },
        {
            "type": "Feature",
            "id": 195,
            "properties": {
                "name": "Rue de la Gaite",
                "timestamp": "2013-08-06T13:01:04.148Z",
                "bikes": 7,
                "slots": 11,
                "marker-color": "#70E588"
            },
            "geometry": {
                "type": "Point",
                "coordinates": [
                    3.09111,
                    50.6367
                ]
            }
        },
        {
            "type": "Feature",
            "id": 196,
            "properties": {
                "name": "Stade Ballet",
                "timestamp": "2013-08-06T13:01:04.975Z",
                "bikes": 11,
                "slots": 7,
                "marker-color": "#70E588"
            },
            "geometry": {
                "type": "Point",
                "coordinates": [
                    3.08815,
                    50.6289
                ]
            }
        },
        {
            "type": "Feature",
            "id": 197,
            "properties": {
                "name": "Marx Dormoy",
                "timestamp": "2013-08-06T13:01:05.803Z",
                "bikes": 10,
                "slots": 14,
                "marker-color": "#70E588"
            },
            "geometry": {
                "type": "Point",
                "coordinates": [
                    3.03398,
                    50.6358
                ]
            }
        },
        {
            "type": "Feature",
            "id": 198,
            "properties": {
                "name": "Marbrerie",
                "timestamp": "2013-08-06T12:58:24.162Z",
                "bikes": 11,
                "slots": 7,
                "marker-color": "#70E588"
            },
            "geometry": {
                "type": "Point",
                "coordinates": [
                    3.09704,
                    50.6304
                ]
            }
        },
        {
            "type": "Feature",
            "id": 199,
            "properties": {
                "name": "Romarin",
                "timestamp": "2013-08-06T12:58:24.988Z",
                "bikes": 2,
                "slots": 16,
                "marker-color": "#FFFF63"
            },
            "geometry": {
                "type": "Point",
                "coordinates": [
                    3.07512,
                    50.6454
                ]
            }
        },
        {
            "type": "Feature",
            "id": 200,
            "properties": {
                "name": "La Madeleine Gare",
                "timestamp": "2013-08-06T12:58:25.817Z",
                "bikes": 9,
                "slots": 8,
                "marker-color": "#70E588"
            },
            "geometry": {
                "type": "Point",
                "coordinates": [
                    3.07406,
                    50.6594
                ]
            }
        },
        {
            "type": "Feature",
            "id": 201,
            "properties": {
                "name": "Place du Marche",
                "timestamp": "2013-08-06T12:58:26.644Z",
                "bikes": 10,
                "slots": 14,
                "marker-color": "#70E588"
            },